[ {
  "id" : "01",
  "name" : "UIC East Campus",
  "address": "750 S Halsted St #100",
  "latitude" : "41.871977",
  "longitude" : "-87.647846"
  },
  {
    "id" : "02",
    "name" : "UIC West Campus",
    "address": "1853 W Polk St",
    "latitude" : "41.870563",
    "longitude" : "-87.672680"
  },
  {
    "id" : "03",
    "name" : "UIC EVL",
    "address": "842 W Taylor St #2032",
    "latitude" : "41.870427",
    "longitude" : "-87.648382"
  },
  {
    "id" : "04",
    "name" : "Millennium Park",
    "address": "201 E Randolph St",
    "latitude" : "41.882565",
    "longitude" : "-87.622552"
  },
  {
    "id" : "05",
    "name" : "Adler Planetarium",
    "address": "1300 S Lake Shore Dr",
    "latitude" : "41.866333",
    "longitude" : "-87.606782"
  },
  {
    "id" : "06",
    "name" : "Museum of Science and Industry",
    "address": "5700 S Lake Shore Dr",
    "latitude" : "41.790585",
    "longitude" : "-87.583055"
  },
  {
    "id" : "07",
    "name" : "Shedd Aquarium",
    "address": "1200 S Lake Shore Dr",
    "latitude" : "41.867537",
    "longitude" : "-87.614038"
  },
  {
    "id" : "08",
    "name" : "United Center",
    "address": "1901 W Madison St",
    "latitude" : "41.880687",
    "longitude" : "-87.674155"
  },
  {
    "id" : "09",
    "name" : "Navy Pier",
    "address": "600 E Grand Ave",
    "latitude" : "41.891646",
    "longitude" : "-87.605123"
  },
  {
    "id" : "10",
    "name" : "Art Institute of Chicago",
    "address": "111 S Michigan Ave",
    "latitude" : "41.879580",
    "longitude" : "-87.623734"
  },
  {
    "id" : "11",
    "name" : "Lincoln Park Zoo",
    "address": "2001 N Clark St",
    "latitude" : "41.920894",
    "longitude" : "-87.632938"
  },
  {
    "id" : "12",
    "name" : "The Field Museum",
    "address": "1400 S Lake Shore Dr",
    "latitude" : "41.866273",
    "longitude" : "-87.616991"
  },
  {
    "id" : "13",
    "name" : "Willis Tower",
    "address": "233 S Wacker Dr",
    "latitude" : "41.878888",
    "longitude" : "-87.635936"
  },
  {
    "id" : "14",
    "name" : "Lincoln Park",
    "address": "",
    "latitude" : "41.928349",
    "longitude" : "-87.635479"
  },
  {
    "id" : "15",
    "name" : "Soldier Field",
    "address": "1410 Museum Campus Dr",
    "latitude" : "41.862293",
    "longitude" : "-87.616699"
  },
  {
    "id" : "16",
    "name" : "Wrigley Field",
    "address": "1060 W Addison St",
    "latitude" : "41.948450",
    "longitude" : "-87.655333"
  },
  {
    "id" : "17",
    "name" : "U.S. Cellular Field",
    "address": "333 W 35th St",
    "latitude" : "41.830310",
    "longitude" : "-87.634948"
  }
]